[{"id":"1","type":"BIKE","latitude":"41.397952","longitude":"2.180042","streetName":"Gran Via Corts Catalanes","streetNumber":"760","altitude":"21","slots":"29","bikes":"0","nearbyStations":"1","status":"CLS"},{"id":"2","type":"BIKE","latitude":"41.39553","longitude":"2.17706","streetName":"Roger de Flor\/ Gran V\u00eda","streetNumber":"126","altitude":"21","slots":"27","bikes":"0","nearbyStations":"2","status":"CLS"},{"id":"3","type":"BIKE","latitude":"41.394055","longitude":"2.181299","streetName":"N\u00e0pols","streetNumber":"82","altitude":"22","slots":"27","bikes":"0","nearbyStations":"3","status":"CLS"},{"id":"4","type":"BIKE","latitude":"41.39348","longitude":"2.181555","streetName":"Ribes","streetNumber":"13","altitude":"21","slots":"20","bikes":"0","nearbyStations":"4","status":"CLS"},{"id":"5","type":"BIKE","latitude":"41.391075","longitude":"2.180223","streetName":"Pg Llu\u00eds Companys","streetNumber":"11","altitude":"16","slots":"39","bikes":"0","nearbyStations":"5","status":"CLS"},{"id":"6","type":"BIKE","latitude":"41.391349","longitude":"2.18061","streetName":"Pg Llu\u00eds Companys","streetNumber":"18","altitude":"16","slots":"39","bikes":"0","nearbyStations":"6","status":"CLS"},{"id":"7","type":"BIKE","latitude":"41.388856","longitude":"2.183251","streetName":"Pg Llu\u00eds Companys","streetNumber":"1","altitude":"16","slots":"23","bikes":"0","nearbyStations":"7","status":"CLS"},{"id":"8","type":"BIKE","latitude":"41.389088","longitude":"2.183568","streetName":"Pg Llu\u00eds Companys","streetNumber":"2","altitude":"11","slots":"26","bikes":"0","nearbyStations":"8","status":"CLS"},{"id":"9","type":"BIKE","latitude":"41.384532","longitude":"2.184921","streetName":"Marqu\u00e8s de l'Argentera","streetNumber":"13","altitude":"11","slots":"27","bikes":"0","nearbyStations":"9","status":"CLS"},{"id":"10","type":"BIKE","latitude":"41.38498","longitude":"2.18417","streetName":"Carrer Comer\u00e7","streetNumber":"27","altitude":"11","slots":"0","bikes":"0","nearbyStations":"10","status":"CLS"},{"id":"11","type":"BIKE","latitude":"41.381689","longitude":"2.193914","streetName":"Passeig Mar\u00edtim","streetNumber":"19","altitude":"1","slots":"21","bikes":"0","nearbyStations":"11","status":"CLS"},{"id":"12","type":"BIKE","latitude":"41.384538","longitude":"2.195679","streetName":"Pg Mar\u00edtim Barceloneta","streetNumber":"23","altitude":"0","slots":"29","bikes":"0","nearbyStations":"12","status":"CLS"},{"id":"13","type":"BIKE","latitude":"41.386861","longitude":"2.195761","streetName":"Avinguda Litoral","streetNumber":"16","altitude":"1","slots":"33","bikes":"0","nearbyStations":"13","status":"CLS"},{"id":"14","type":"BIKE","latitude":"41.384675","longitude":"2.185039","streetName":"Avinguda del Marques Argentera","streetNumber":"15","altitude":"11","slots":"26","bikes":"0","nearbyStations":"14","status":"CLS"},{"id":"15","type":"BIKE","latitude":"41.394812","longitude":"2.171189","streetName":"Girona","streetNumber":"68","altitude":"40","slots":"18","bikes":"0","nearbyStations":"15","status":"CLS"},{"id":"17","type":"BIKE","latitude":"41.398237","longitude":"2.186711","streetName":"Av. Meridiana","streetNumber":"47","altitude":"18","slots":"21","bikes":"0","nearbyStations":"17","status":"CLS"},{"id":"18","type":"BIKE","latitude":"41.406086","longitude":"2.174167","streetName":"Rossell\u00f3","streetNumber":"453","altitude":"49","slots":"26","bikes":"0","nearbyStations":"18","status":"CLS"},{"id":"19","type":"BIKE","latitude":"41.403282","longitude":"2.170726","streetName":"Rossell\u00f3","streetNumber":"354","altitude":"49","slots":"28","bikes":"0","nearbyStations":"19","status":"CLS"},{"id":"20","type":"BIKE","latitude":"41.410166","longitude":"2.175759","streetName":"Cartagena","streetNumber":"308","altitude":"59","slots":"20","bikes":"0","nearbyStations":"20","status":"CLS"},{"id":"21","type":"BIKE","latitude":"41.410897","longitude":"2.17402","streetName":"Sant Antoni Maria Claret","streetNumber":"214","altitude":"59","slots":"21","bikes":"0","nearbyStations":"21","status":"CLS"},{"id":"22","type":"BIKE","latitude":"41.401684","longitude":"2.17568","streetName":"Sardenya","streetNumber":"292","altitude":"28","slots":"19","bikes":"0","nearbyStations":"22","status":"CLS"},{"id":"23","type":"BIKE","latitude":"41.392526","longitude":"2.171812","streetName":"Bruc","streetNumber":"45","altitude":"42","slots":"27","bikes":"0","nearbyStations":"23","status":"CLS"},{"id":"24","type":"BIKE","latitude":"41.400659","longitude":"2.179111","streetName":"Marina","streetNumber":"199","altitude":"30","slots":"30","bikes":"0","nearbyStations":"24","status":"CLS"},{"id":"25","type":"BIKE","latitude":"41.395179","longitude":"2.168294","streetName":"Bruc","streetNumber":"102","altitude":"42","slots":"21","bikes":"0","nearbyStations":"25","status":"CLS"},{"id":"26","type":"BIKE","latitude":"41.407035","longitude":"2.181981","streetName":"Dos Maig","streetNumber":"230","altitude":"28","slots":"18","bikes":"0","nearbyStations":"26","status":"CLS"},{"id":"27","type":"BIKE","latitude":"41.396897","longitude":"2.164373","streetName":"Proven\u00e7a","streetNumber":"322","altitude":"49","slots":"21","bikes":"0","nearbyStations":"27","status":"CLS"},{"id":"28","type":"BIKE","latitude":"41.405422","longitude":"2.17064","streetName":"Sardenya","streetNumber":"362","altitude":"45","slots":"21","bikes":"0","nearbyStations":"28","status":"CLS"},{"id":"29","type":"BIKE","latitude":"41.401132","longitude":"2.170028","streetName":"Proven\u00e7a","streetNumber":"388","altitude":"50","slots":"20","bikes":"0","nearbyStations":"29","status":"CLS"},{"id":"30","type":"BIKE","latitude":"41.402046","longitude":"2.182286","streetName":"Diagonal","streetNumber":"231","altitude":"28","slots":"21","bikes":"0","nearbyStations":"30","status":"CLS"},{"id":"31","type":"BIKE","latitude":"41.37481","longitude":"2.18895","streetName":"Pla\u00e7a del Mar","streetNumber":"72","altitude":"1","slots":"18","bikes":"0","nearbyStations":"31","status":"CLS"},{"id":"32","type":"BIKE","latitude":"41.373698","longitude":"2.188927","streetName":"Pla\u00e7a del Mar","streetNumber":"1","altitude":"1","slots":"26","bikes":"1","nearbyStations":"32","status":"CLS"},{"id":"33","type":"BIKE","latitude":"41.376862","longitude":"2.190773","streetName":"Pontevedra ","streetNumber":"58B","altitude":"1","slots":"21","bikes":"0","nearbyStations":"33","status":"CLS"},{"id":"34","type":"BIKE","latitude":"41.387074","longitude":"2.175247","streetName":"Sant Pere M\u00e9s Alt","streetNumber":"4","altitude":"16","slots":"19","bikes":"0","nearbyStations":"34","status":"CLS"},{"id":"35","type":"BIKE","latitude":"41.413592","longitude":"2.221153","streetName":"Sant Ramon de Penyafort","streetNumber":"1","altitude":"1","slots":"26","bikes":"0","nearbyStations":"35","status":"CLS"},{"id":"36","type":"BIKE","latitude":"41.385151","longitude":"2.176804","streetName":"Catedral","streetNumber":"6","altitude":"16","slots":"20","bikes":"0","nearbyStations":"36","status":"CLS"},{"id":"37","type":"BIKE","latitude":"41.381226","longitude":"2.181888","streetName":"Pl. Antonio L\u00f3pez","streetNumber":"","altitude":"5","slots":"22","bikes":"0","nearbyStations":"37","status":"CLS"},{"id":"39","type":"BIKE","latitude":"41.381046","longitude":"2.186576","streetName":"Pl. Pau Vila","streetNumber":"","altitude":"1","slots":"20","bikes":"0","nearbyStations":"39","status":"CLS"},{"id":"40","type":"BIKE","latitude":"41.382335","longitude":"2.187093","streetName":"Doctor Aiguader","streetNumber":"2","altitude":"1","slots":"17","bikes":"0","nearbyStations":"40","status":"CLS"},{"id":"41","type":"BIKE","latitude":"41.379326","longitude":"2.189906","streetName":"Pl. Poeta Bosc\u00e0\/Atl\u00e0ntida","streetNumber":"","altitude":"1","slots":"20","bikes":"0","nearbyStations":"41","status":"CLS"},{"id":"42","type":"BIKE","latitude":"41.404511","longitude":"2.189881","streetName":"Ciutat de Granada","streetNumber":"168","altitude":"18","slots":"20","bikes":"0","nearbyStations":"42","status":"CLS"},{"id":"43","type":"BIKE","latitude":"41.40541","longitude":"2.18712","streetName":"Av Meridiana","streetNumber":"80","altitude":"18","slots":"1","bikes":"0","nearbyStations":"43","status":"CLS"},{"id":"44","type":"BIKE","latitude":"41.402285","longitude":"2.187111","streetName":"Av Meridiana","streetNumber":"66","altitude":"18","slots":"20","bikes":"0","nearbyStations":"44","status":"CLS"},{"id":"45","type":"BIKE","latitude":"41.391429","longitude":"2.189312","streetName":"Sardenya","streetNumber":"66","altitude":"18","slots":"18","bikes":"0","nearbyStations":"45","status":"CLS"},{"id":"46","type":"BIKE","latitude":"41.388359","longitude":"2.193004","streetName":"Ramon trias Fargas","streetNumber":"19","altitude":"1","slots":"29","bikes":"0","nearbyStations":"46","status":"CLS"},{"id":"47","type":"BIKE","latitude":"41.389831","longitude":"2.191147","streetName":"Ramon Trias Fargas","streetNumber":"23","altitude":"1","slots":"36","bikes":"0","nearbyStations":"47","status":"CLS"},{"id":"48","type":"BIKE","latitude":"41.396085","longitude":"2.187073","streetName":"Meridiana","streetNumber":"40","altitude":"18","slots":"20","bikes":"0","nearbyStations":"48","status":"CLS"},{"id":"49","type":"BIKE","latitude":"41.39106","longitude":"2.196457","streetName":"Rosa Sensat en front","streetNumber":"20","altitude":"1","slots":"20","bikes":"0","nearbyStations":"49","status":"CLS"},{"id":"50","type":"BIKE","latitude":"41.375","longitude":"2.17035","streetName":"Av. Paral.lel","streetNumber":"54","altitude":"1","slots":"27","bikes":"0","nearbyStations":"50","status":"CLS"},{"id":"51","type":"BIKE","latitude":"41.384054","longitude":"2.169019","streetName":"Pl. Vicen\u00e7 Martorell","streetNumber":"","altitude":"32","slots":"21","bikes":"0","nearbyStations":"51","status":"CLS"},{"id":"52","type":"BIKE","latitude":"41.381766","longitude":"2.17738","streetName":"Pla\u00e7a de Sant Miquel","streetNumber":"1","altitude":"5","slots":"2","bikes":"0","nearbyStations":"52","status":"CLS"},{"id":"53","type":"BIKE","latitude":"41.385227","longitude":"2.173878","streetName":"Pl. Carles Pi i Sunyer","streetNumber":"","altitude":"32","slots":"24","bikes":"0","nearbyStations":"53","status":"CLS"},{"id":"54","type":"BIKE","latitude":"41.377635","longitude":"2.170586","streetName":"Sant Oleguer","streetNumber":"2","altitude":"24","slots":"21","bikes":"0","nearbyStations":"54","status":"CLS"},{"id":"55","type":"BIKE","latitude":"41.381154","longitude":"2.173497","streetName":"La Rambla","streetNumber":"80","altitude":"24","slots":"21","bikes":"0","nearbyStations":"55","status":"CLS"},{"id":"56","type":"BIKE","latitude":"41.377011","longitude":"2.175834","streetName":"Portal de Santa Madrona","streetNumber":"2","altitude":"5","slots":"24","bikes":"0","nearbyStations":"56","status":"CLS"},{"id":"57","type":"BIKE","latitude":"41.376758","longitude":"2.177093","streetName":"La Rambla","streetNumber":"2","altitude":"5","slots":"26","bikes":"0","nearbyStations":"57","status":"CLS"},{"id":"58","type":"BIKE","latitude":"41.382822","longitude":"2.167154","streetName":"Pla\u00e7a dels \u00c0ngels","streetNumber":"1","altitude":"24","slots":"20","bikes":"1","nearbyStations":"58","status":"CLS"},{"id":"59","type":"BIKE","latitude":"41.382781","longitude":"2.167203","streetName":"Pla\u00e7a dels \u00c0ngels","streetNumber":"2","altitude":"24","slots":"21","bikes":"0","nearbyStations":"59","status":"CLS"},{"id":"60","type":"BIKE","latitude":"41.390349","longitude":"2.16424","streetName":"Rambla Catalunya ","streetNumber":"47","altitude":"41","slots":"27","bikes":"0","nearbyStations":"60","status":"CLS"},{"id":"61","type":"BIKE","latitude":"41.390143","longitude":"2.164946","streetName":"Rambla Catalunya","streetNumber":"42","altitude":"41","slots":"26","bikes":"0","nearbyStations":"61","status":"CLS"},{"id":"62","type":"BIKE","latitude":"41.387142","longitude":"2.168858","streetName":"Pl. Catalunya ","streetNumber":"5","altitude":"32","slots":"21","bikes":"0","nearbyStations":"62","status":"CLS"},{"id":"63","type":"BIKE","latitude":"41.386439","longitude":"2.169417","streetName":"Pl. Catalunya","streetNumber":"7","altitude":"32","slots":"26","bikes":"0","nearbyStations":"63","status":"CLS"},{"id":"64","type":"BIKE","latitude":"41.387469","longitude":"2.169048","streetName":"Pl. Catalunya","streetNumber":"","altitude":"32","slots":"20","bikes":"1","nearbyStations":"64","status":"CLS"},{"id":"65","type":"BIKE","latitude":"41.387678","longitude":"2.169587","streetName":"Pl. Catalunya","streetNumber":"","altitude":"32","slots":"21","bikes":"0","nearbyStations":"65","status":"CLS"},{"id":"66","type":"BIKE","latitude":"41.389097","longitude":"2.167933","streetName":"Gran Via","streetNumber":"609","altitude":"32","slots":"15","bikes":"0","nearbyStations":"66","status":"CLS"},{"id":"67","type":"BIKE","latitude":"41.385012","longitude":"2.145843","streetName":"Rocafort","streetNumber":"214","altitude":"51","slots":"23","bikes":"0","nearbyStations":"67","status":"CLS"},{"id":"68","type":"BIKE","latitude":"41.395364","longitude":"2.157356","streetName":"Rambla Catalunya","streetNumber":"133","altitude":"59","slots":"27","bikes":"0","nearbyStations":"68","status":"CLS"},{"id":"69","type":"BIKE","latitude":"41.386814","longitude":"2.195689","streetName":"Avda. Litoral","streetNumber":"","altitude":"1","slots":"33","bikes":"0","nearbyStations":"69","status":"CLS"},{"id":"70","type":"BIKE","latitude":"41.380347","longitude":"2.160695","streetName":"Comte Urgell","streetNumber":"23","altitude":"35","slots":"19","bikes":"0","nearbyStations":"70","status":"CLS"},{"id":"71","type":"BIKE","latitude":"41.381931","longitude":"2.162969","streetName":"Floridablanca","streetNumber":"145","altitude":"35","slots":"21","bikes":"0","nearbyStations":"71","status":"CLS"},{"id":"72","type":"BIKE","latitude":"41.392716","longitude":"2.158811","streetName":"Proven\u00e7a","streetNumber":"215","altitude":"55","slots":"24","bikes":"0","nearbyStations":"72","status":"CLS"},{"id":"73","type":"BIKE","latitude":"41.392278","longitude":"2.156183","streetName":"Enric Granados","streetNumber":"93","altitude":"59","slots":"21","bikes":"0","nearbyStations":"73","status":"CLS"},{"id":"74","type":"BIKE","latitude":"41.390062","longitude":"2.143272","streetName":"Josep Tarradellas","streetNumber":"133","altitude":"51","slots":"21","bikes":"0","nearbyStations":"74","status":"CLS"},{"id":"75","type":"BIKE","latitude":"41.385081","longitude":"2.142868","streetName":"Josep Tarradellas","streetNumber":"58","altitude":"51","slots":"21","bikes":"0","nearbyStations":"75","status":"CLS"},{"id":"76","type":"BIKE","latitude":"41.391751","longitude":"2.153123","streetName":"C\u00f2rsega","streetNumber":"216","altitude":"45","slots":"33","bikes":"0","nearbyStations":"76","status":"CLS"},{"id":"77","type":"BIKE","latitude":"41.39005","longitude":"2.152905","streetName":"Casanova","streetNumber":"141","altitude":"45","slots":"0","bikes":"0","nearbyStations":"77","status":"CLS"},{"id":"78","type":"BIKE","latitude":"41.385598","longitude":"2.16338","streetName":"Pl. Universitat","streetNumber":"","altitude":"41","slots":"26","bikes":"0","nearbyStations":"78","status":"CLS"},{"id":"79","type":"BIKE","latitude":"41.38547","longitude":"2.16333","streetName":"Pl. Universitat","streetNumber":"","altitude":"41","slots":"22","bikes":"0","nearbyStations":"79","status":"CLS"},{"id":"80","type":"BIKE","latitude":"41.389687","longitude":"2.159999","streetName":"Enric Granados","streetNumber":"35","altitude":"41","slots":"21","bikes":"0","nearbyStations":"80","status":"CLS"},{"id":"81","type":"BIKE","latitude":"41.378915","longitude":"2.149174","streetName":"Vilamar\u00ed davant","streetNumber":"61","altitude":"44","slots":"21","bikes":"0","nearbyStations":"81","status":"CLS"},{"id":"82","type":"BIKE","latitude":"41.379016","longitude":"2.153799","streetName":"Rocafort","streetNumber":"72","altitude":"40","slots":"32","bikes":"0","nearbyStations":"82","status":"CLS"},{"id":"83","type":"BIKE","latitude":"41.384075","longitude":"2.153654","streetName":"Comte Borrell","streetNumber":"177","altitude":"45","slots":"27","bikes":"0","nearbyStations":"83","status":"CLS"},{"id":"84","type":"BIKE","latitude":"41.383047","longitude":"2.157033","streetName":"Comte d'Urgell","streetNumber":"75 B","altitude":"35","slots":"21","bikes":"0","nearbyStations":"84","status":"CLS"},{"id":"85","type":"BIKE","latitude":"41.375076","longitude":"2.159046","streetName":"Paral\u00b7lel","streetNumber":"146","altitude":"35","slots":"16","bikes":"6","nearbyStations":"85","status":"CLS"},{"id":"86","type":"BIKE","latitude":"41.37544","longitude":"2.163","streetName":"Viladomat","streetNumber":"2","altitude":"35","slots":"27","bikes":"0","nearbyStations":"86","status":"CLS"},{"id":"87","type":"BIKE","latitude":"41.383156","longitude":"2.148506","streetName":"Mallorca","streetNumber":"41","altitude":"44","slots":"20","bikes":"0","nearbyStations":"87","status":"CLS"},{"id":"88","type":"BIKE","latitude":"41.393547","longitude":"2.150764","streetName":"Londres","streetNumber":"101","altitude":"59","slots":"21","bikes":"0","nearbyStations":"88","status":"CLS"},{"id":"89","type":"BIKE","latitude":"41.38824","longitude":"2.150252","streetName":"Rossell\u00f3","streetNumber":"101","altitude":"45","slots":"33","bikes":"0","nearbyStations":"89","status":"CLS"},{"id":"90","type":"BIKE","latitude":"41.38834","longitude":"2.150825","streetName":"Rossell\u00f3","streetNumber":"108","altitude":"45","slots":"18","bikes":"0","nearbyStations":"90","status":"CLS"},{"id":"91","type":"BIKE","latitude":"41.380452","longitude":"2.158403","streetName":"Comte Borrell","streetNumber":"119","altitude":"35","slots":"30","bikes":"0","nearbyStations":"91","status":"CLS"},{"id":"92","type":"BIKE","latitude":"41.39386","longitude":"2.160237","streetName":"Proven\u00e7a","streetNumber":"241","altitude":"50","slots":"18","bikes":"0","nearbyStations":"92","status":"CLS"},{"id":"93","type":"BIKE","latitude":"41.375454","longitude":"2.149786","streetName":"Gran Via","streetNumber":"375","altitude":"40","slots":"23","bikes":"0","nearbyStations":"93","status":"CLS"},{"id":"94","type":"BIKE","latitude":"41.375619","longitude":"2.149889","streetName":"Gran Via","streetNumber":"375","altitude":"40","slots":"24","bikes":"0","nearbyStations":"94","status":"CLS"},{"id":"95","type":"BIKE","latitude":"41.376428","longitude":"2.147734","streetName":"Tarragona","streetNumber":"103","altitude":"44","slots":"33","bikes":"0","nearbyStations":"95","status":"CLS"},{"id":"96","type":"BIKE","latitude":"41.374152","longitude":"2.148154","streetName":"Gran Via","streetNumber":"361","altitude":"61","slots":"20","bikes":"0","nearbyStations":"96","status":"CLS"},{"id":"97","type":"BIKE","latitude":"41.378124","longitude":"2.145389","streetName":"Tarragona","streetNumber":"141","altitude":"44","slots":"19","bikes":"2","nearbyStations":"97","status":"CLS"},{"id":"98","type":"BIKE","latitude":"41.380499","longitude":"2.141153","streetName":"Viriat","streetNumber":"45","altitude":"44","slots":"21","bikes":"0","nearbyStations":"98","status":"CLS"},{"id":"99","type":"BIKE","latitude":"41.380632","longitude":"2.141548","streetName":"Viriat","streetNumber":"53","altitude":"44","slots":"20","bikes":"0","nearbyStations":"99","status":"CLS"},{"id":"100","type":"BIKE","latitude":"41.379135","longitude":"2.14409","streetName":"Tarragona","streetNumber":"159","altitude":"44","slots":"21","bikes":"0","nearbyStations":"100","status":"CLS"},{"id":"101","type":"BIKE","latitude":"41.392463","longitude":"2.143182","streetName":"Av. Diagonal","streetNumber":"602","altitude":"69","slots":"0","bikes":"0","nearbyStations":"101","status":"CLS"},{"id":"102","type":"BIKE","latitude":"41.39218","longitude":"2.14213","streetName":"Av. Diagonal","streetNumber":"612","altitude":"69","slots":"24","bikes":"0","nearbyStations":"102","status":"CLS"},{"id":"103","type":"BIKE","latitude":"41.409856","longitude":"2.188217","streetName":"Arag\u00f3","streetNumber":"629","altitude":"17","slots":"21","bikes":"0","nearbyStations":"103","status":"CLS"},{"id":"104","type":"BIKE","latitude":"41.410821","longitude":"2.187365","streetName":"C\/Val\u00e8ncia","streetNumber":"621","altitude":"17","slots":"26","bikes":"0","nearbyStations":"104","status":"CLS"},{"id":"105","type":"BIKE","latitude":"41.389197","longitude":"2.173555","streetName":"PL. Urquinaona","streetNumber":"9","altitude":"32","slots":"18","bikes":"0","nearbyStations":"105","status":"CLS"},{"id":"106","type":"BIKE","latitude":"41.405587","longitude":"2.162317","streetName":"Pl. Joanic","streetNumber":"s\/n","altitude":"59","slots":"19","bikes":"0","nearbyStations":"106","status":"CLS"},{"id":"107","type":"BIKE","latitude":"41.398373","longitude":"2.153154","streetName":"Travessera de Gracia","streetNumber":"92","altitude":"59","slots":"21","bikes":"0","nearbyStations":"107","status":"CLS"},{"id":"108","type":"BIKE","latitude":"41.402314","longitude":"2.164961","streetName":"Ind\u00fastria","streetNumber":"10","altitude":"59","slots":"21","bikes":"0","nearbyStations":"108","status":"CLS"},{"id":"109","type":"BIKE","latitude":"41.390981","longitude":"2.14737","streetName":"C\/ Londres","streetNumber":"53","altitude":"51","slots":"21","bikes":"0","nearbyStations":"109","status":"CLS"},{"id":"110","type":"BIKE","latitude":"41.385377","longitude":"2.154878","streetName":"Avda. Roma","streetNumber":"136","altitude":"43","slots":"21","bikes":"0","nearbyStations":"110","status":"CLS"},{"id":"111","type":"BIKE","latitude":"41.381231","longitude":"2.152755","streetName":"Calabria","streetNumber":"137","altitude":"41","slots":"20","bikes":"0","nearbyStations":"111","status":"CLS"},{"id":"112","type":"BIKE","latitude":"41.377644","longitude":"2.15725","streetName":"Floridablanca","streetNumber":"49","altitude":"40","slots":"20","bikes":"0","nearbyStations":"112","status":"CLS"},{"id":"113","type":"BIKE","latitude":"41.377464","longitude":"2.164725","streetName":"Sant Pau","streetNumber":"51","altitude":"30","slots":"25","bikes":"2","nearbyStations":"113","status":"CLS"},{"id":"114","type":"BIKE","latitude":"41.376801","longitude":"2.173039","streetName":"Pl. Jean Genet","streetNumber":"1","altitude":"24","slots":"21","bikes":"0","nearbyStations":"114","status":"CLS"},{"id":"115","type":"BIKE","latitude":"41.38377","longitude":"2.18424","streetName":"Marqu\u00e9s d'Argentera","streetNumber":"3","altitude":"1","slots":"18","bikes":"3","nearbyStations":"115","status":"CLS"},{"id":"116","type":"BIKE","latitude":"41.383718","longitude":"2.191414","streetName":"Salvat Papasseit","streetNumber":"72","altitude":"11","slots":"26","bikes":"0","nearbyStations":"116","status":"CLS"},{"id":"117","type":"BIKE","latitude":"41.390666","longitude":"2.197024","streetName":"Rosa Sensat","streetNumber":"12","altitude":"1","slots":"21","bikes":"0","nearbyStations":"117","status":"CLS"},{"id":"118","type":"BIKE","latitude":"41.392212","longitude":"2.187847","streetName":"Sardenya","streetNumber":"3","altitude":"18","slots":"27","bikes":"0","nearbyStations":"118","status":"CLS"},{"id":"119","type":"BIKE","latitude":"41.396684","longitude":"2.182447","streetName":"Sardenya","streetNumber":"178","altitude":"21","slots":"20","bikes":"0","nearbyStations":"119","status":"CLS"},{"id":"120","type":"BIKE","latitude":"41.404666","longitude":"2.176515","streetName":"Lepant","streetNumber":"278","altitude":"28","slots":"21","bikes":"0","nearbyStations":"120","status":"CLS"},{"id":"121","type":"BIKE","latitude":"41.406293","longitude":"2.178689","streetName":"Castillejos","streetNumber":"258","altitude":"28","slots":"19","bikes":"0","nearbyStations":"121","status":"CLS"},{"id":"122","type":"BIKE","latitude":"41.405435","longitude":"2.16624","streetName":"N\u00e0pols","streetNumber":"344","altitude":"59","slots":"21","bikes":"0","nearbyStations":"122","status":"CLS"},{"id":"123","type":"BIKE","latitude":"41.398013","longitude":"2.166978","streetName":"Girona","streetNumber":"142","altitude":"45","slots":"21","bikes":"0","nearbyStations":"123","status":"CLS"},{"id":"124","type":"BIKE","latitude":"41.370297","longitude":"2.187808","streetName":"Passeig Joan de Borb\u00f3","streetNumber":"s\/n","altitude":"5","slots":"27","bikes":"0","nearbyStations":"124","status":"CLS"},{"id":"125","type":"BIKE","latitude":"41.384426","longitude":"2.195595","streetName":"Passeig Maritim","streetNumber":"31","altitude":"1","slots":"20","bikes":"0","nearbyStations":"125","status":"CLS"},{"id":"126","type":"BIKE","latitude":"41.380778","longitude":"2.182581","streetName":"Passeig de Colom","streetNumber":"","altitude":"5","slots":"21","bikes":"0","nearbyStations":"126","status":"CLS"},{"id":"127","type":"BIKE","latitude":"41.412322","longitude":"2.19142","streetName":"Arag\u00f3","streetNumber":"661","altitude":"17","slots":"26","bikes":"0","nearbyStations":"127","status":"CLS"},{"id":"128","type":"BIKE","latitude":"41.415581","longitude":"2.19581","streetName":"Rambla Guip\u00fascoa","streetNumber":"43","altitude":"13","slots":"27","bikes":"0","nearbyStations":"128","status":"CLS"},{"id":"129","type":"BIKE","latitude":"41.377068","longitude":"2.161269","streetName":"Manso","streetNumber":"46","altitude":"35","slots":"20","bikes":"7","nearbyStations":"129","status":"CLS"},{"id":"130","type":"BIKE","latitude":"41.419905","longitude":"2.201573","streetName":"Rambla Guip\u00fascoa","streetNumber":"103","altitude":"9","slots":"24","bikes":"0","nearbyStations":"130","status":"CLS"},{"id":"131","type":"BIKE","latitude":"41.422808","longitude":"2.206036","streetName":"Rambla Guip\u00fascoa","streetNumber":"158","altitude":"9","slots":"27","bikes":"0","nearbyStations":"131","status":"CLS"},{"id":"132","type":"BIKE","latitude":"41.408439","longitude":"2.192173","streetName":"Pl. Valent\u00ed Amirall","streetNumber":"","altitude":"13","slots":"26","bikes":"0","nearbyStations":"132","status":"CLS"},{"id":"133","type":"BIKE","latitude":"41.407307","longitude":"2.192804","streetName":"Gran V\u00eda","streetNumber":"902","altitude":"16","slots":"17","bikes":"0","nearbyStations":"133","status":"CLS"},{"id":"134","type":"BIKE","latitude":"41.411433","longitude":"2.198735","streetName":"Bac de Roda","streetNumber":"157","altitude":"10","slots":"20","bikes":"0","nearbyStations":"134","status":"CLS"},{"id":"135","type":"BIKE","latitude":"41.411908","longitude":"2.197936","streetName":"Gran V\u00eda","streetNumber":"981","altitude":"13","slots":"21","bikes":"0","nearbyStations":"135","status":"CLS"},{"id":"136","type":"BIKE","latitude":"41.414226","longitude":"2.201734","streetName":"Gran V\u00eda","streetNumber":"1062","altitude":"9","slots":"4","bikes":"22","nearbyStations":"136","status":"CLS"},{"id":"137","type":"BIKE","latitude":"41.414758","longitude":"2.201538","streetName":"Gran V\u00eda, 1041\/ Selva de Mar","streetNumber":"1041","altitude":"9","slots":"27","bikes":"0","nearbyStations":"137","status":"CLS"},{"id":"138","type":"BIKE","latitude":"41.416966","longitude":"2.205397","streetName":"Gran V\u00eda","streetNumber":"1118","altitude":"9","slots":"24","bikes":"0","nearbyStations":"138","status":"CLS"},{"id":"139","type":"BIKE","latitude":"41.418035","longitude":"2.206023","streetName":"Gran V\u00eda","streetNumber":"1131","altitude":"9","slots":"0","bikes":"26","nearbyStations":"139","status":"CLS"},{"id":"140","type":"BIKE","latitude":"41.38063","longitude":"2.15614","streetName":"Viladomat","streetNumber":"122","altitude":"41","slots":"27","bikes":"0","nearbyStations":"140","status":"CLS"},{"id":"141","type":"BIKE","latitude":"41.40902","longitude":"2.194896","streetName":"Gran Via ","streetNumber":"940","altitude":"13","slots":"29","bikes":"0","nearbyStations":"141","status":"CLS"},{"id":"142","type":"BIKE","latitude":"41.400503","longitude":"2.192511","streetName":"Sancho de \u00c1vila","streetNumber":"104","altitude":"16","slots":"33","bikes":"0","nearbyStations":"142","status":"CLS"},{"id":"143","type":"BIKE","latitude":"41.40325","longitude":"2.19606","streetName":"Sancho de \u00c1vila","streetNumber":"170","altitude":"16","slots":"23","bikes":"0","nearbyStations":"143","status":"CLS"},{"id":"144","type":"BIKE","latitude":"41.40562","longitude":"2.19764","streetName":"Castella","streetNumber":"28","altitude":"16","slots":"27","bikes":"0","nearbyStations":"144","status":"CLS"},{"id":"145","type":"BIKE","latitude":"41.40982","longitude":"2.202904","streetName":"Pere IV","streetNumber":"301","altitude":"9","slots":"25","bikes":"0","nearbyStations":"145","status":"CLS"},{"id":"146","type":"BIKE","latitude":"41.415191","longitude":"2.207111","streetName":"Pere IV","streetNumber":"449","altitude":"9","slots":"15","bikes":"0","nearbyStations":"146","status":"CLS"},{"id":"147","type":"BIKE","latitude":"41.416018","longitude":"2.212658","streetName":"Rambla Prim","streetNumber":"79","altitude":"5","slots":"25","bikes":"0","nearbyStations":"147","status":"CLS"},{"id":"148","type":"BIKE","latitude":"41.378486","longitude":"2.163404","streetName":"Ronda Sant Pau","streetNumber":"79","altitude":"79","slots":"27","bikes":"0","nearbyStations":"148","status":"CLS"},{"id":"149","type":"BIKE","latitude":"41.395905","longitude":"2.192958","streetName":"Pujades","streetNumber":"57B","altitude":"11","slots":"26","bikes":"0","nearbyStations":"149","status":"CLS"},{"id":"150","type":"BIKE","latitude":"41.406549","longitude":"2.203112","streetName":"Espronceda","streetNumber":"124","altitude":"10","slots":"27","bikes":"0","nearbyStations":"150","status":"CLS"},{"id":"151","type":"BIKE","latitude":"41.40065","longitude":"2.19719","streetName":"Pallars","streetNumber":"462","altitude":"6","slots":"24","bikes":"0","nearbyStations":"151","status":"CLS"},{"id":"152","type":"BIKE","latitude":"41.39925","longitude":"2.197421","streetName":"Pujades","streetNumber":"121","altitude":"11","slots":"27","bikes":"0","nearbyStations":"152","status":"CLS"},{"id":"153","type":"BIKE","latitude":"41.401778","longitude":"2.200769","streetName":"Pujades","streetNumber":"173","altitude":"10","slots":"27","bikes":"0","nearbyStations":"153","status":"CLS"},{"id":"154","type":"BIKE","latitude":"41.402454","longitude":"2.201656","streetName":"Pujades","streetNumber":"191","altitude":"10","slots":"27","bikes":"0","nearbyStations":"154","status":"CLS"},{"id":"155","type":"BIKE","latitude":"41.406977","longitude":"2.207602","streetName":"Pujades","streetNumber":"311","altitude":"10","slots":"32","bikes":"0","nearbyStations":"155","status":"CLS"},{"id":"156","type":"BIKE","latitude":"41.409017","longitude":"2.20881","streetName":"Diagonal","streetNumber":"46","altitude":"5","slots":"26","bikes":"0","nearbyStations":"156","status":"CLS"},{"id":"157","type":"BIKE","latitude":"41.412947","longitude":"2.217819","streetName":"C\/ LLULL - RBLA. PRIM","streetNumber":"465","altitude":"0","slots":"27","bikes":"0","nearbyStations":"157","status":"CLS"},{"id":"158","type":"BIKE","latitude":"41.411741","longitude":"2.218546","streetName":"Rambla de Prim","streetNumber":"19","altitude":"1","slots":"26","bikes":"0","nearbyStations":"158","status":"CLS"},{"id":"159","type":"BIKE","latitude":"41.410882","longitude":"2.216703","streetName":"Avda. Diagonal","streetNumber":"26","altitude":"5","slots":"22","bikes":"0","nearbyStations":"159","status":"CLS"},{"id":"160","type":"BIKE","latitude":"41.411026","longitude":"2.219377","streetName":"Avda. d'Eduard Maristany","streetNumber":"1","altitude":"1","slots":"33","bikes":"0","nearbyStations":"160","status":"CLS"},{"id":"161","type":"BIKE","latitude":"41.395009","longitude":"2.196308","streetName":"Ramon Turro","streetNumber":"91","altitude":"11","slots":"27","bikes":"0","nearbyStations":"161","status":"CLS"},{"id":"162","type":"BIKE","latitude":"41.403908","longitude":"2.208436","streetName":"Ramon Turro","streetNumber":"292","altitude":"0","slots":"26","bikes":"0","nearbyStations":"162","status":"CLS"},{"id":"163","type":"BIKE","latitude":"41.3942","longitude":"2.20077","streetName":"Avda. Icaria","streetNumber":"202","altitude":"11","slots":"26","bikes":"0","nearbyStations":"163","status":"CLS"},{"id":"164","type":"BIKE","latitude":"41.411901","longitude":"2.177895","streetName":"Independ\u00e8ncia","streetNumber":"379","altitude":"33","slots":"26","bikes":"0","nearbyStations":"164","status":"CLS"},{"id":"165","type":"BIKE","latitude":"41.399196","longitude":"2.204253","streetName":"Carrer del Doctor Trueta","streetNumber":"221","altitude":"0","slots":"25","bikes":"0","nearbyStations":"165","status":"CLS"},{"id":"166","type":"BIKE","latitude":"41.400533","longitude":"2.206539","streetName":"Bilbao","streetNumber":"11","altitude":"10","slots":"24","bikes":"0","nearbyStations":"166","status":"CLS"},{"id":"167","type":"BIKE","latitude":"41.402561","longitude":"2.210538","streetName":"Bac de Roda","streetNumber":"11","altitude":"0","slots":"21","bikes":"0","nearbyStations":"167","status":"CLS"},{"id":"168","type":"BIKE","latitude":"41.405358","longitude":"2.213677","streetName":"Selva de Mar","streetNumber":"0","altitude":"0","slots":"24","bikes":"0","nearbyStations":"168","status":"CLS"},{"id":"170","type":"BIKE","latitude":"41.389732","longitude":"2.199934","streetName":"Avda. Litoral","streetNumber":"40","altitude":"1","slots":"27","bikes":"0","nearbyStations":"170","status":"CLS"},{"id":"171","type":"BIKE","latitude":"41.391986","longitude":"2.203699","streetName":"Passeig Mar\u00edtim de la Nova Ic\u00e0ria","streetNumber":"83","altitude":"0","slots":"27","bikes":"0","nearbyStations":"171","status":"CLS"},{"id":"173","type":"BIKE","latitude":"41.398027","longitude":"2.208982","streetName":"Avda. Litoral","streetNumber":"84","altitude":"0","slots":"26","bikes":"0","nearbyStations":"173","status":"CLS"},{"id":"174","type":"BIKE","latitude":"41.40061","longitude":"2.210461","streetName":"Passeig de Garcia F\u00e0ria","streetNumber":"21","altitude":"0","slots":"25","bikes":"1","nearbyStations":"174","status":"CLS"},{"id":"175","type":"BIKE","latitude":"41.40666","longitude":"2.20956","streetName":"Llull \/ Proven\u00e7als","streetNumber":"309","altitude":"10","slots":"27","bikes":"0","nearbyStations":"175","status":"CLS"},{"id":"176","type":"BIKE","latitude":"41.402541","longitude":"2.212641","streetName":"Passeig de Garcia F\u00e0ria","streetNumber":"37","altitude":"0","slots":"26","bikes":"0","nearbyStations":"176","status":"CLS"},{"id":"177","type":"BIKE","latitude":"41.411089","longitude":"2.181119","streetName":"Rossell\u00f3","streetNumber":"557","altitude":"0","slots":"25","bikes":"0","nearbyStations":"177","status":"CLS"},{"id":"178","type":"BIKE","latitude":"41.405389","longitude":"2.216212","streetName":"Passeig de Garcia F\u00e0ria","streetNumber":"85","altitude":"0","slots":"27","bikes":"0","nearbyStations":"178","status":"CLS"},{"id":"179","type":"BIKE","latitude":"41.363511","longitude":"2.13677","streetName":"Pg. Zona Franca","streetNumber":"244","altitude":"48","slots":"19","bikes":"0","nearbyStations":"179","status":"CLS"},{"id":"180","type":"BIKE","latitude":"41.36778","longitude":"2.13926","streetName":"Gran Via","streetNumber":"181","altitude":"50","slots":"27","bikes":"0","nearbyStations":"180","status":"CLS"},{"id":"181","type":"BIKE","latitude":"41.36766","longitude":"2.13911","streetName":"Gran Via","streetNumber":"180","altitude":"50","slots":"27","bikes":"0","nearbyStations":"181","status":"CLS"},{"id":"182","type":"BIKE","latitude":"41.371455","longitude":"2.143882","streetName":"Gran Via","streetNumber":"273","altitude":"61","slots":"27","bikes":"0","nearbyStations":"182","status":"CLS"},{"id":"183","type":"BIKE","latitude":"41.372338","longitude":"2.141875","streetName":"Gav\u00e0","streetNumber":"1","altitude":"61","slots":"26","bikes":"0","nearbyStations":"183","status":"CLS"},{"id":"184","type":"BIKE","latitude":"41.367504","longitude":"2.134088","streetName":"Quetzal","streetNumber":"22","altitude":"50","slots":"27","bikes":"0","nearbyStations":"184","status":"CLS"},{"id":"185","type":"BIKE","latitude":"41.37046","longitude":"2.138994","streetName":"Gav\u00e0","streetNumber":"81","altitude":"50","slots":"19","bikes":"0","nearbyStations":"185","status":"CLS"},{"id":"186","type":"BIKE","latitude":"41.375571","longitude":"2.143812","streetName":"Consell de Cent","streetNumber":"6","altitude":"44","slots":"15","bikes":"0","nearbyStations":"186","status":"CLS"},{"id":"187","type":"BIKE","latitude":"41.376858","longitude":"2.169811","streetName":"Carrer de Sant Pau","streetNumber":"89","altitude":"24","slots":"18","bikes":"0","nearbyStations":"187","status":"CLS"},{"id":"188","type":"BIKE","latitude":"41.375802","longitude":"2.135973","streetName":"Pl. Sants (Ps. S. Antoni)","streetNumber":"0","altitude":"45","slots":"26","bikes":"0","nearbyStations":"188","status":"CLS"},{"id":"189","type":"BIKE","latitude":"41.396918","longitude":"2.166163","streetName":"Bruc","streetNumber":"130","altitude":"50","slots":"23","bikes":"0","nearbyStations":"189","status":"CLS"},{"id":"190","type":"BIKE","latitude":"41.39606","longitude":"2.207803","streetName":"Avinguda Litoral","streetNumber":"72","altitude":"0","slots":"32","bikes":"0","nearbyStations":"190","status":"CLS"},{"id":"191","type":"BIKE","latitude":"41.382564","longitude":"2.149094","streetName":"Rocafort","streetNumber":"167","altitude":"44","slots":"27","bikes":"0","nearbyStations":"191","status":"CLS"},{"id":"192","type":"BIKE","latitude":"41.378629","longitude":"2.133467","streetName":"Joan G\u00fcell","streetNumber":"50","altitude":"40","slots":"7","bikes":"2","nearbyStations":"192","status":"CLS"},{"id":"193","type":"BIKE","latitude":"41.381311","longitude":"2.128912","streetName":"Figols","streetNumber":"1","altitude":"46","slots":"27","bikes":"0","nearbyStations":"193","status":"CLS"},{"id":"194","type":"BIKE","latitude":"41.381013","longitude":"2.132319","streetName":"Joan G\u00fcell","streetNumber":"98","altitude":"40","slots":"25","bikes":"0","nearbyStations":"194","status":"CLS"},{"id":"195","type":"BIKE","latitude":"41.381888","longitude":"2.135433","streetName":"Vallespir","streetNumber":"130","altitude":"45","slots":"26","bikes":"0","nearbyStations":"195","status":"CLS"},{"id":"196","type":"BIKE","latitude":"41.383241","longitude":"2.139363","streetName":"Berl\u00edn","streetNumber":"38","altitude":"30","slots":"23","bikes":"0","nearbyStations":"196","status":"CLS"},{"id":"197","type":"BIKE","latitude":"41.38712","longitude":"2.141039","streetName":"Gelabert","streetNumber":"1","altitude":"57","slots":"27","bikes":"0","nearbyStations":"197","status":"CLS"},{"id":"198","type":"BIKE","latitude":"41.38451","longitude":"2.133617","streetName":"Vallespir","streetNumber":"194","altitude":"58","slots":"27","bikes":"0","nearbyStations":"198","status":"CLS"},{"id":"199","type":"BIKE","latitude":"41.38182","longitude":"2.126933","streetName":"Mej\u00eda Lequerica","streetNumber":"2","altitude":"46","slots":"27","bikes":"0","nearbyStations":"199","status":"CLS"},{"id":"200","type":"BIKE","latitude":"41.383756","longitude":"2.131273","streetName":"Can bruixa","streetNumber":"1","altitude":"60","slots":"24","bikes":"0","nearbyStations":"200","status":"CLS"},{"id":"201","type":"BIKE","latitude":"41.387787","longitude":"2.134341","streetName":"Num\u00e0ncia","streetNumber":"136","altitude":"58","slots":"12","bikes":"21","nearbyStations":"201","status":"CLS"},{"id":"202","type":"BIKE","latitude":"41.385331","longitude":"2.128737","streetName":"Carrer de les Corts","streetNumber":"20","altitude":"60","slots":"27","bikes":"0","nearbyStations":"202","status":"CLS"},{"id":"203","type":"BIKE","latitude":"41.388742","longitude":"2.128503","streetName":"Avda. Diagonal","streetNumber":"664","altitude":"60","slots":"33","bikes":"0","nearbyStations":"203","status":"CLS"},{"id":"204","type":"BIKE","latitude":"41.388011","longitude":"2.125593","streetName":"Avda. Diagonal","streetNumber":"668","altitude":"60","slots":"33","bikes":"0","nearbyStations":"204","status":"CLS"},{"id":"205","type":"BIKE","latitude":"41.387465","longitude":"2.130838","streetName":"Europa ","streetNumber":"25","altitude":"60","slots":"33","bikes":"0","nearbyStations":"205","status":"CLS"},{"id":"206","type":"BIKE","latitude":"41.389845","longitude":"2.13284","streetName":"Avda. Diagonal","streetNumber":"650","altitude":"60","slots":"31","bikes":"0","nearbyStations":"206","status":"CLS"},{"id":"207","type":"BIKE","latitude":"41.390828","longitude":"2.136665","streetName":"Avda. Diagonal","streetNumber":"634","altitude":"57","slots":"20","bikes":"0","nearbyStations":"207","status":"CLS"},{"id":"208","type":"BIKE","latitude":"41.391451","longitude":"2.139116","streetName":"Avda. Diagonal","streetNumber":"630","altitude":"57","slots":"33","bikes":"0","nearbyStations":"208","status":"CLS"},{"id":"209","type":"BIKE","latitude":"41.385755","longitude":"2.161004","streetName":"Diputaci\u00f3","streetNumber":"200","altitude":"41","slots":"25","bikes":"0","nearbyStations":"209","status":"CLS"},{"id":"210","type":"BIKE","latitude":"41.37453","longitude":"2.142356","streetName":"Vilardell","streetNumber":"18","altitude":"50","slots":"16","bikes":"11","nearbyStations":"210","status":"CLS"},{"id":"211","type":"BIKE","latitude":"41.398848","longitude":"2.190291","streetName":"Sancho de \u00c1vila","streetNumber":"60","altitude":"18","slots":"26","bikes":"0","nearbyStations":"211","status":"CLS"},{"id":"212","type":"BIKE","latitude":"41.39239","longitude":"2.130945","streetName":"Av. Sarri\u00e0","streetNumber":"163","altitude":"82","slots":"2","bikes":"25","nearbyStations":"212","status":"CLS"},{"id":"213","type":"BIKE","latitude":"41.393783","longitude":"2.135078","streetName":"Sant Fe de Nou M\u00e8xic","streetNumber":"2","altitude":"79","slots":"32","bikes":"0","nearbyStations":"213","status":"CLS"},{"id":"214","type":"BIKE","latitude":"41.395251","longitude":"2.133541","streetName":"Jos\u00e9 de Agull\u00f3","streetNumber":"19","altitude":"85","slots":"8","bikes":"16","nearbyStations":"214","status":"CLS"},{"id":"215","type":"BIKE","latitude":"41.39412","longitude":"2.138146","streetName":"Carrer de Ganduxer","streetNumber":"29","altitude":"79","slots":"0","bikes":"20","nearbyStations":"215","status":"CLS"},{"id":"216","type":"BIKE","latitude":"41.396809","longitude":"2.144534","streetName":"Madrazo","streetNumber":"131","altitude":"69","slots":"26","bikes":"0","nearbyStations":"216","status":"CLS"},{"id":"217","type":"BIKE","latitude":"41.398463","longitude":"2.143924","streetName":"Rector Ubach","streetNumber":"24","altitude":"69","slots":"25","bikes":"2","nearbyStations":"217","status":"CLS"},{"id":"218","type":"BIKE","latitude":"41.404114","longitude":"2.183203","streetName":"Consell de Cent","streetNumber":"566","altitude":"28","slots":"27","bikes":"0","nearbyStations":"218","status":"CLS"},{"id":"219","type":"BIKE","latitude":"41.397698","longitude":"2.147358","streetName":"Carre Laforja","streetNumber":"74","altitude":"69","slots":"27","bikes":"0","nearbyStations":"219","status":"CLS"},{"id":"220","type":"BIKE","latitude":"41.396229","longitude":"2.151482","streetName":"Tuset","streetNumber":"19","altitude":"59","slots":"27","bikes":"0","nearbyStations":"220","status":"CLS"},{"id":"221","type":"BIKE","latitude":"41.402535","longitude":"2.152519","streetName":"Gran de Gr\u00e0cia","streetNumber":"155","altitude":"71","slots":"26","bikes":"0","nearbyStations":"221","status":"CLS"},{"id":"222","type":"BIKE","latitude":"41.40124","longitude":"2.157483","streetName":"Carrer del Can\u00f3","streetNumber":"1","altitude":"71","slots":"19","bikes":"0","nearbyStations":"222","status":"CLS"},{"id":"223","type":"BIKE","latitude":"41.398311","longitude":"2.159865","streetName":"Carrer de Bonavista","streetNumber":"14","altitude":"50","slots":"33","bikes":"0","nearbyStations":"223","status":"CLS"},{"id":"224","type":"BIKE","latitude":"41.399945","longitude":"2.164389","streetName":"Girona","streetNumber":"176","altitude":"55","slots":"24","bikes":"0","nearbyStations":"224","status":"CLS"},{"id":"225","type":"BIKE","latitude":"41.384956","longitude":"2.150814","streetName":"Mallorca","streetNumber":"84","altitude":"44","slots":"27","bikes":"0","nearbyStations":"225","status":"CLS"},{"id":"226","type":"BIKE","latitude":"41.403465","longitude":"2.161096","streetName":"Montmany","streetNumber":"1","altitude":"59","slots":"27","bikes":"0","nearbyStations":"226","status":"CLS"},{"id":"227","type":"BIKE","latitude":"41.407837","longitude":"2.158678","streetName":"Torrent de Les Flors","streetNumber":"102","altitude":"59","slots":"26","bikes":"0","nearbyStations":"227","status":"CLS"},{"id":"228","type":"BIKE","latitude":"41.40694","longitude":"2.155794","streetName":"Pl. Del Nord","streetNumber":"5","altitude":"71","slots":"20","bikes":"0","nearbyStations":"228","status":"CLS"},{"id":"229","type":"BIKE","latitude":"41.405107","longitude":"2.156874","streetName":"Carrer de la Santacreu","streetNumber":"2","altitude":"71","slots":"30","bikes":"0","nearbyStations":"229","status":"CLS"},{"id":"230","type":"BIKE","latitude":"41.405986","longitude":"2.151633","streetName":"C. De Nil Fabra","streetNumber":"16","altitude":"71","slots":"20","bikes":"7","nearbyStations":"230","status":"CLS"},{"id":"231","type":"BIKE","latitude":"41.407202","longitude":"2.163476","streetName":"Pi i Margall","streetNumber":"38","altitude":"82","slots":"22","bikes":"2","nearbyStations":"231","status":"CLS"},{"id":"232","type":"BIKE","latitude":"41.373509","longitude":"2.171002","streetName":"Vil\u00e0 i Vil\u00e0","streetNumber":"45","altitude":"1","slots":"24","bikes":"0","nearbyStations":"232","status":"CLS"},{"id":"233","type":"BIKE","latitude":"41.371965","longitude":"2.166871","streetName":"Nou de la Rambla","streetNumber":"164","altitude":"1","slots":"24","bikes":"0","nearbyStations":"233","status":"CLS"},{"id":"234","type":"BIKE","latitude":"41.371515","longitude":"2.162166","streetName":"Passeig de l'Exposici\u00f3","streetNumber":"30","altitude":"44","slots":"24","bikes":"1","nearbyStations":"234","status":"CLS"},{"id":"235","type":"BIKE","latitude":"41.375065","longitude":"2.165839","streetName":"Paral.lel","streetNumber":"98","altitude":"40","slots":"26","bikes":"0","nearbyStations":"235","status":"CLS"},{"id":"236","type":"BIKE","latitude":"41.375127","longitude":"2.152769","streetName":"Avinguda Paral.lel","streetNumber":"194","altitude":"47","slots":"24","bikes":"0","nearbyStations":"236","status":"CLS"},{"id":"237","type":"BIKE","latitude":"41.372891","longitude":"2.154471","streetName":"Rius i Taulet","streetNumber":"4","altitude":"67","slots":"25","bikes":"0","nearbyStations":"237","status":"CLS"},{"id":"238","type":"BIKE","latitude":"41.415684","longitude":"2.190986","streetName":"Espronceda","streetNumber":"298","altitude":"17","slots":"26","bikes":"0","nearbyStations":"238","status":"CLS"},{"id":"239","type":"BIKE","latitude":"41.417323","longitude":"2.184534","streetName":"Ind\u00fastria","streetNumber":"329","altitude":"18","slots":"27","bikes":"0","nearbyStations":"239","status":"CLS"},{"id":"240","type":"BIKE","latitude":"41.417763","longitude":"2.187558","streetName":"Josep Estivill","streetNumber":"32","altitude":"18","slots":"25","bikes":"0","nearbyStations":"240","status":"CLS"},{"id":"241","type":"BIKE","latitude":"41.419337","longitude":"2.180482","streetName":"Teodor Llorente","streetNumber":"2","altitude":"40","slots":"33","bikes":"0","nearbyStations":"241","status":"CLS"},{"id":"242","type":"BIKE","latitude":"41.424451","longitude":"2.177284","streetName":"Ramon Alb\u00f3","streetNumber":"1","altitude":"37","slots":"27","bikes":"0","nearbyStations":"242","status":"CLS"},{"id":"243","type":"BIKE","latitude":"41.423939","longitude":"2.181298","streetName":"Alenxadre Gal\u00ed","streetNumber":"1","altitude":"37","slots":"27","bikes":"0","nearbyStations":"243","status":"CLS"},{"id":"244","type":"BIKE","latitude":"41.426896","longitude":"2.178511","streetName":"Felip II","streetNumber":"214","altitude":"47","slots":"27","bikes":"0","nearbyStations":"244","status":"CLS"},{"id":"246","type":"BIKE","latitude":"41.422844","longitude":"2.186637","streetName":"Garcilaso","streetNumber":"77","altitude":"18","slots":"18","bikes":"0","nearbyStations":"246","status":"CLS"},{"id":"247","type":"BIKE","latitude":"41.421992","longitude":"2.184806","streetName":"Felipe II","streetNumber":"112","altitude":"19","slots":"24","bikes":"0","nearbyStations":"247","status":"CLS"},{"id":"248","type":"BIKE","latitude":"41.418208","longitude":"2.190374","streetName":"Pal\u00e8ncia","streetNumber":"31","altitude":"18","slots":"25","bikes":"0","nearbyStations":"248","status":"CLS"},{"id":"249","type":"BIKE","latitude":"41.425216","longitude":"2.188997","streetName":"A\u00e7ores","streetNumber":"1","altitude":"18","slots":"27","bikes":"0","nearbyStations":"249","status":"CLS"},{"id":"250","type":"BIKE","latitude":"41.425905","longitude":"2.19115","streetName":"Portugal","streetNumber":"3","altitude":"24","slots":"25","bikes":"0","nearbyStations":"250","status":"CLS"},{"id":"251","type":"BIKE","latitude":"41.425405","longitude":"2.185226","streetName":"Cardenal Tedeschini","streetNumber":"13","altitude":"27","slots":"33","bikes":"0","nearbyStations":"251","status":"CLS"},{"id":"252","type":"BIKE","latitude":"41.429953","longitude":"2.193185","streetName":"Rambla Onze de Setembre","streetNumber":"31","altitude":"18","slots":"33","bikes":"0","nearbyStations":"252","status":"CLS"},{"id":"253","type":"BIKE","latitude":"41.429977","longitude":"2.191821","streetName":"Onze de Setembre","streetNumber":"37","altitude":"18","slots":"26","bikes":"0","nearbyStations":"253","status":"CLS"},{"id":"254","type":"BIKE","latitude":"41.429985","longitude":"2.190163","streetName":"Gran de Sant Andreu","streetNumber":"69","altitude":"25","slots":"24","bikes":"0","nearbyStations":"254","status":"CLS"},{"id":"255","type":"BIKE","latitude":"41.431183","longitude":"2.185852","streetName":"Irlanda","streetNumber":"11","altitude":"27","slots":"24","bikes":"0","nearbyStations":"255","status":"CLS"},{"id":"256","type":"BIKE","latitude":"41.43608","longitude":"2.189542","streetName":"Malats","streetNumber":"28","altitude":"25","slots":"27","bikes":"0","nearbyStations":"256","status":"CLS"},{"id":"257","type":"BIKE","latitude":"41.433897","longitude":"2.189614","streetName":"Sant Adri\u00e0","streetNumber":"2","altitude":"25","slots":"27","bikes":"0","nearbyStations":"257","status":"CLS"},{"id":"258","type":"BIKE","latitude":"41.442167","longitude":"2.193032","streetName":"Fernando Pessoa","streetNumber":"41","altitude":"15","slots":"27","bikes":"0","nearbyStations":"258","status":"CLS"},{"id":"259","type":"BIKE","latitude":"41.439109","longitude":"2.185818","streetName":"Carrer de Bartrina","streetNumber":"14","altitude":"25","slots":"27","bikes":"0","nearbyStations":"259","status":"CLS"},{"id":"260","type":"BIKE","latitude":"41.436163","longitude":"2.192994","streetName":"Pla\u00e7a de l'Estaci\u00f3","streetNumber":"6","altitude":"19","slots":"27","bikes":"0","nearbyStations":"260","status":"CLS"},{"id":"261","type":"BIKE","latitude":"41.382206","longitude":"2.160644","streetName":"Villarroel","streetNumber":"39","altitude":"35","slots":"25","bikes":"0","nearbyStations":"261","status":"CLS"},{"id":"262","type":"BIKE","latitude":"41.379821","longitude":"2.152496","streetName":"Rocafort","streetNumber":"103","altitude":"40","slots":"17","bikes":"15","nearbyStations":"262","status":"CLS"},{"id":"263","type":"BIKE","latitude":"41.437814","longitude":"2.191039","streetName":"Pg.Torras i Bages","streetNumber":"29","altitude":"27","slots":"21","bikes":"0","nearbyStations":"263","status":"CLS"},{"id":"264","type":"BIKE","latitude":"41.439949","longitude":"2.197033","streetName":"Rep\u00fablica Dominicana","streetNumber":"25","altitude":"19","slots":"31","bikes":"0","nearbyStations":"264","status":"CLS"},{"id":"265","type":"BIKE","latitude":"41.385467","longitude":"2.158532","streetName":"Casanovas","streetNumber":"67","altitude":"40","slots":"9","bikes":"9","nearbyStations":"265","status":"CLS"},{"id":"266","type":"BIKE","latitude":"41.426841","longitude":"2.184238","streetName":"Concepci\u00f3 Arenal","streetNumber":"176","altitude":"37","slots":"27","bikes":"0","nearbyStations":"266","status":"CLS"},{"id":"267","type":"BIKE","latitude":"41.443395","longitude":"2.190623","streetName":"Passeig Torras i Bages","streetNumber":"129","altitude":"24","slots":"25","bikes":"1","nearbyStations":"267","status":"CLS"},{"id":"268","type":"BIKE","latitude":"41.445705","longitude":"2.192892","streetName":"Fernando Pessoa","streetNumber":"72","altitude":"23","slots":"27","bikes":"0","nearbyStations":"268","status":"CLS"},{"id":"269","type":"BIKE","latitude":"41.448128","longitude":"2.192826","streetName":"Via Barcino","streetNumber":"121","altitude":"23","slots":"26","bikes":"0","nearbyStations":"269","status":"CLS"},{"id":"270","type":"BIKE","latitude":"41.448628","longitude":"2.18976","streetName":"Crta. de Ribes (Trinitat Vella)","streetNumber":"77","altitude":"24","slots":"27","bikes":"0","nearbyStations":"270","status":"CLS"},{"id":"271","type":"BIKE","latitude":"41.450634","longitude":"2.192335","streetName":"Via Barcino","streetNumber":"69","altitude":"18","slots":"21","bikes":"0","nearbyStations":"271","status":"CLS"},{"id":"272","type":"BIKE","latitude":"41.432559","longitude":"2.184264","streetName":"Concepci\u00f3 Arenal","streetNumber":"281","altitude":"27","slots":"26","bikes":"0","nearbyStations":"272","status":"CLS"},{"id":"273","type":"BIKE","latitude":"41.430404","longitude":"2.183382","streetName":"Avda. Meridiana","streetNumber":"404","altitude":"27","slots":"36","bikes":"0","nearbyStations":"273","status":"CLS"},{"id":"274","type":"BIKE","latitude":"41.430092","longitude":"2.184898","streetName":"Rambla Fabra i Puig","streetNumber":"67","altitude":"27","slots":"33","bikes":"0","nearbyStations":"274","status":"CLS"},{"id":"275","type":"BIKE","latitude":"41.430693","longitude":"2.182225","streetName":"Rio de Janeiro","streetNumber":"3","altitude":"27","slots":"32","bikes":"0","nearbyStations":"275","status":"CLS"},{"id":"276","type":"BIKE","latitude":"41.412163","longitude":"2.165275","streetName":"Pla\u00e7a Alfons X el Savi \/ Ronda del Guinard\u00f3 ","streetNumber":"","altitude":"87","slots":"26","bikes":"1","nearbyStations":"276","status":"CLS"},{"id":"277","type":"BIKE","latitude":"41.408284","longitude":"2.16905","streetName":"Travessera de Gr\u00e0cia","streetNumber":"328","altitude":"59","slots":"27","bikes":"0","nearbyStations":"277","status":"CLS"},{"id":"278","type":"BIKE","latitude":"41.409815","longitude":"2.171621","streetName":"Travessera de Gr\u00e0cia","streetNumber":"368","altitude":"55","slots":"23","bikes":"0","nearbyStations":"278","status":"CLS"},{"id":"279","type":"BIKE","latitude":"41.415951","longitude":"2.174564","streetName":"Mas Casanovas","streetNumber":"137","altitude":"70","slots":"26","bikes":"0","nearbyStations":"279","status":"CLS"},{"id":"280","type":"BIKE","latitude":"41.413986","longitude":"2.177842","streetName":"Sant Antoni M\u00aa Claret","streetNumber":"290","altitude":"37","slots":"22","bikes":"0","nearbyStations":"280","status":"CLS"},{"id":"281","type":"BIKE","latitude":"41.418088","longitude":"2.176313","streetName":"Escornalbou","streetNumber":"51","altitude":"45","slots":"24","bikes":"0","nearbyStations":"281","status":"CLS"},{"id":"282","type":"BIKE","latitude":"41.427561","longitude":"2.166022","streetName":"Font d'en Fargas","streetNumber":"1","altitude":"88","slots":"27","bikes":"0","nearbyStations":"282","status":"CLS"},{"id":"283","type":"BIKE","latitude":"41.42968","longitude":"2.16157","streetName":"Carrer Fulton","streetNumber":"1","altitude":"88","slots":"19","bikes":"0","nearbyStations":"283","status":"CLS"},{"id":"284","type":"BIKE","latitude":"41.389503","longitude":"2.131454","streetName":"Ada. Diagonal","streetNumber":"652","altitude":"60","slots":"25","bikes":"0","nearbyStations":"284","status":"CLS"},{"id":"285","type":"BIKE","latitude":"41.436708","longitude":"2.186059","streetName":"Malats","streetNumber":"98","altitude":"25","slots":"24","bikes":"0","nearbyStations":"285","status":"CLS"},{"id":"286","type":"BIKE","latitude":"41.403103","longitude":"2.191428","streetName":"Bol\u00edvia","streetNumber":"76","altitude":"18","slots":"20","bikes":"0","nearbyStations":"286","status":"CLS"},{"id":"287","type":"BIKE","latitude":"41.389171","longitude":"2.168113","streetName":"Gran Via","streetNumber":"632","altitude":"32","slots":"14","bikes":"0","nearbyStations":"287","status":"CLS"},{"id":"288","type":"BIKE","latitude":"41.429636","longitude":"2.174487","streetName":"Pl. Virrei Amat","streetNumber":"","altitude":"63","slots":"33","bikes":"0","nearbyStations":"288","status":"CLS"},{"id":"289","type":"BIKE","latitude":"41.416828","longitude":"2.191022","streetName":"M\u00farcia","streetNumber":"64","altitude":"18","slots":"25","bikes":"0","nearbyStations":"289","status":"CLS"},{"id":"290","type":"BIKE","latitude":"41.437094","longitude":"2.174047","streetName":"Pla\u00e7a dels Jardins d'Alf\u00e0bia","streetNumber":"1","altitude":"61","slots":"26","bikes":"0","nearbyStations":"290","status":"CLS"},{"id":"291","type":"BIKE","latitude":"41.425897","longitude":"2.17505","streetName":"Cubelles","streetNumber":"2","altitude":"55","slots":"27","bikes":"0","nearbyStations":"291","status":"CLS"},{"id":"292","type":"BIKE","latitude":"41.430036","longitude":"2.171974","streetName":"Amilcar","streetNumber":"1","altitude":"63","slots":"27","bikes":"0","nearbyStations":"292","status":"CLS"},{"id":"293","type":"BIKE","latitude":"41.428388","longitude":"2.163101","streetName":"Granollers","streetNumber":"1","altitude":"95","slots":"24","bikes":"0","nearbyStations":"293","status":"CLS"},{"id":"294","type":"BIKE","latitude":"41.436373","longitude":"2.170678","streetName":"Seu del Districte (Nou Barris)","streetNumber":"","altitude":"61","slots":"27","bikes":"0","nearbyStations":"294","status":"CLS"},{"id":"295","type":"BIKE","latitude":"41.43345","longitude":"2.1715","streetName":"Sant Iscle","streetNumber":"60","altitude":"61","slots":"26","bikes":"0","nearbyStations":"295","status":"CLS"},{"id":"296","type":"BIKE","latitude":"41.436505","longitude":"2.183877","streetName":"Carrer de Rossell\u00f3 i Porcel","streetNumber":"1","altitude":"25","slots":"15","bikes":"12","nearbyStations":"296","status":"CLS"},{"id":"297","type":"BIKE","latitude":"41.438864","longitude":"2.176822","streetName":"Carrer Tur\u00f3 Blau","streetNumber":"1","altitude":"45","slots":"24","bikes":"0","nearbyStations":"297","status":"CLS"},{"id":"298","type":"BIKE","latitude":"41.43463","longitude":"2.181747","streetName":"Andreu Nin","streetNumber":"22","altitude":"45","slots":"32","bikes":"0","nearbyStations":"298","status":"CLS"},{"id":"299","type":"BIKE","latitude":"41.433965","longitude":"2.175199","streetName":"Carrer de l'Escultor Ord\u00f3\u00f1ez","streetNumber":"55","altitude":"45","slots":"26","bikes":"0","nearbyStations":"299","status":"CLS"},{"id":"300","type":"BIKE","latitude":"41.431593","longitude":"2.176909","streetName":"Carrer de Maladeta","streetNumber":"1","altitude":"47","slots":"18","bikes":"0","nearbyStations":"300","status":"CLS"},{"id":"301","type":"BIKE","latitude":"41.437053","longitude":"2.169644","streetName":"Marie Curie","streetNumber":"8","altitude":"61","slots":"27","bikes":"0","nearbyStations":"301","status":"CLS"},{"id":"302","type":"BIKE","latitude":"41.39065","longitude":"2.111615","streetName":"Cavallers","streetNumber":"41","altitude":"73","slots":"26","bikes":"0","nearbyStations":"302","status":"CLS"},{"id":"303","type":"BIKE","latitude":"41.393341","longitude":"2.115076","streetName":"Cavallers","streetNumber":"67","altitude":"101","slots":"26","bikes":"0","nearbyStations":"303","status":"CLS"},{"id":"304","type":"BIKE","latitude":"41.390208","longitude":"2.121029","streetName":"Manuel Girona","streetNumber":"7","altitude":"63","slots":"33","bikes":"0","nearbyStations":"304","status":"CLS"},{"id":"305","type":"BIKE","latitude":"41.387498","longitude":"2.123637","streetName":"Diagonal","streetNumber":"680","altitude":"63","slots":"27","bikes":"0","nearbyStations":"305","status":"CLS"},{"id":"306","type":"BIKE","latitude":"41.385465","longitude":"2.122912","streetName":"Doctor Salvador Cardenal","streetNumber":"7","altitude":"63","slots":"29","bikes":"2","nearbyStations":"306","status":"CLS"},{"id":"307","type":"BIKE","latitude":"41.379135","longitude":"2.113505","streetName":"Pintor Ribalta","streetNumber":"","altitude":"50","slots":"33","bikes":"0","nearbyStations":"307","status":"CLS"},{"id":"308","type":"BIKE","latitude":"41.376788","longitude":"2.113864","streetName":"Cardenal Reig","streetNumber":"11","altitude":"50","slots":"27","bikes":"0","nearbyStations":"308","status":"CLS"},{"id":"309","type":"BIKE","latitude":"41.37674","longitude":"2.116973","streetName":"Sant Ram\u00f3n Nonat","streetNumber":"26","altitude":"47","slots":"12","bikes":"15","nearbyStations":"309","status":"CLS"},{"id":"310","type":"BIKE","latitude":"41.381223","longitude":"2.119077","streetName":"Josep Samitier","streetNumber":"","altitude":"47","slots":"26","bikes":"0","nearbyStations":"310","status":"CLS"},{"id":"311","type":"BIKE","latitude":"41.378638","longitude":"2.120393","streetName":"Gallego-Ar\u00edstides Maillol","streetNumber":"2","altitude":"52","slots":"24","bikes":"0","nearbyStations":"311","status":"CLS"},{"id":"312","type":"BIKE","latitude":"41.379046","longitude":"2.123253","streetName":"Arizala","streetNumber":"77","altitude":"50","slots":"1","bikes":"32","nearbyStations":"312","status":"CLS"},{"id":"313","type":"BIKE","latitude":"41.375366","longitude":"2.129847","streetName":"Feliu de Casanova","streetNumber":"1","altitude":"42","slots":"27","bikes":"0","nearbyStations":"313","status":"CLS"},{"id":"314","type":"BIKE","latitude":"41.37836","longitude":"2.129737","streetName":"Rambla del Brasil","streetNumber":"44","altitude":"46","slots":"27","bikes":"0","nearbyStations":"314","status":"CLS"},{"id":"315","type":"BIKE","latitude":"41.415617","longitude":"2.181966","streetName":"Guinard\u00f3","streetNumber":"32","altitude":"33","slots":"27","bikes":"0","nearbyStations":"315","status":"CLS"},{"id":"316","type":"BIKE","latitude":"41.422212","longitude":"2.198316","streetName":"Cant\u00e0bria","streetNumber":"55","altitude":"13","slots":"26","bikes":"1","nearbyStations":"316","status":"CLS"},{"id":"317","type":"BIKE","latitude":"41.425566","longitude":"2.200693","streetName":"Rambla Prim","streetNumber":"256","altitude":"12","slots":"27","bikes":"0","nearbyStations":"317","status":"CLS"},{"id":"318","type":"BIKE","latitude":"41.413406","longitude":"2.171331","streetName":"Cartagena","streetNumber":"83","altitude":"59","slots":"26","bikes":"0","nearbyStations":"318","status":"CLS"},{"id":"319","type":"BIKE","latitude":"41.393713","longitude":"2.145584","streetName":"Sagu\u00e8s","streetNumber":"1","altitude":"65","slots":"11","bikes":"16","nearbyStations":"319","status":"CLS"},{"id":"320","type":"BIKE","latitude":"41.401118","longitude":"2.147989","streetName":"V\u00eda Augusta","streetNumber":"21","altitude":"80","slots":"17","bikes":"9","nearbyStations":"320","status":"CLS"},{"id":"321","type":"BIKE","latitude":"41.403054","longitude":"2.144549","streetName":"Carrer de Sant Hermenegild","streetNumber":"30","altitude":"80","slots":"27","bikes":"0","nearbyStations":"321","status":"CLS"},{"id":"322","type":"BIKE","latitude":"41.400977","longitude":"2.13907","streetName":"Santal\u00f3","streetNumber":"165","altitude":"106","slots":"27","bikes":"0","nearbyStations":"322","status":"CLS"},{"id":"323","type":"BIKE","latitude":"41.397996","longitude":"2.138717","streetName":"Vallmajor","streetNumber":"13","altitude":"79","slots":"25","bikes":"0","nearbyStations":"323","status":"CLS"},{"id":"324","type":"BIKE","latitude":"41.396938","longitude":"2.136258","streetName":"Reina Victoria","streetNumber":"31","altitude":"79","slots":"26","bikes":"0","nearbyStations":"324","status":"CLS"},{"id":"325","type":"BIKE","latitude":"41.39493","longitude":"2.130325","streetName":"Alt de Gironella","streetNumber":"13","altitude":"82","slots":"24","bikes":"0","nearbyStations":"325","status":"CLS"},{"id":"326","type":"BIKE","latitude":"41.407384","longitude":"2.1383","streetName":"Balmes","streetNumber":"409","altitude":"110","slots":"32","bikes":"0","nearbyStations":"326","status":"CLS"},{"id":"327","type":"BIKE","latitude":"41.405","longitude":"2.13453","streetName":"Reus","streetNumber":"23","altitude":"106","slots":"24","bikes":"0","nearbyStations":"327","status":"CLS"},{"id":"328","type":"BIKE","latitude":"41.40293","longitude":"2.13427","streetName":"Artesa de Segre","streetNumber":"2","altitude":"106","slots":"27","bikes":"0","nearbyStations":"328","status":"CLS"},{"id":"329","type":"BIKE","latitude":"41.402879","longitude":"2.128541","streetName":"Carrer de les Escoles Pies","streetNumber":"99","altitude":"130","slots":"26","bikes":"0","nearbyStations":"329","status":"CLS"},{"id":"330","type":"BIKE","latitude":"41.400587","longitude":"2.130658","streetName":"Doctor Carulla","streetNumber":"44","altitude":"130","slots":"27","bikes":"0","nearbyStations":"330","status":"CLS"},{"id":"331","type":"BIKE","latitude":"41.39706","longitude":"2.12801","streetName":"Castellnou","streetNumber":"65","altitude":"82","slots":"33","bikes":"0","nearbyStations":"331","status":"CLS"},{"id":"332","type":"BIKE","latitude":"41.399833","longitude":"2.128083","streetName":"Doctor Roux","streetNumber":"86","altitude":"82","slots":"27","bikes":"0","nearbyStations":"332","status":"CLS"},{"id":"333","type":"BIKE","latitude":"41.395632","longitude":"2.125106","streetName":"Passatge de Senillosa","streetNumber":"3","altitude":"82","slots":"27","bikes":"0","nearbyStations":"333","status":"CLS"},{"id":"334","type":"BIKE","latitude":"41.400722","longitude":"2.123268","streetName":"Via Augusta","streetNumber":"348","altitude":"138","slots":"25","bikes":"0","nearbyStations":"334","status":"CLS"},{"id":"335","type":"BIKE","latitude":"41.393639","longitude":"2.123224","streetName":"Santa Am\u00e8lia","streetNumber":"2","altitude":"96","slots":"27","bikes":"0","nearbyStations":"335","status":"CLS"},{"id":"336","type":"BIKE","latitude":"41.395274","longitude":"2.120973","streetName":"Caponata","streetNumber":"10","altitude":"96","slots":"26","bikes":"0","nearbyStations":"336","status":"CLS"},{"id":"337","type":"BIKE","latitude":"41.398719","longitude":"2.120422","streetName":"Carme Karr","streetNumber":"12","altitude":"96","slots":"23","bikes":"0","nearbyStations":"337","status":"CLS"},{"id":"338","type":"BIKE","latitude":"41.397572","longitude":"2.119506","streetName":"Avinguda de J.Foix","streetNumber":"63","altitude":"96","slots":"32","bikes":"0","nearbyStations":"338","status":"CLS"},{"id":"339","type":"BIKE","latitude":"41.401662","longitude":"2.205277","streetName":"Ramon Turr\u00f3","streetNumber":"246","altitude":"9","slots":"26","bikes":"0","nearbyStations":"339","status":"CLS"},{"id":"340","type":"BIKE","latitude":"41.43619","longitude":"2.204573","streetName":"Sant Adri\u00e0","streetNumber":"113","altitude":"28","slots":"24","bikes":"0","nearbyStations":"340","status":"CLS"},{"id":"341","type":"BIKE","latitude":"41.433958","longitude":"2.206166","streetName":"Pl. Moss\u00e8n Joan Cortines","streetNumber":".","altitude":"28","slots":"26","bikes":"0","nearbyStations":"341","status":"CLS"},{"id":"342","type":"BIKE","latitude":"41.403502","longitude":"2.193702","streetName":"Roc Boronat","streetNumber":"134","altitude":"18","slots":"26","bikes":"0","nearbyStations":"342","status":"CLS"},{"id":"343","type":"BIKE","latitude":"41.438886","longitude":"2.199598","streetName":"Campana de la Maquinista","streetNumber":"","altitude":"19","slots":"25","bikes":"0","nearbyStations":"343","status":"CLS"},{"id":"344","type":"BIKE","latitude":"41.443127","longitude":"2.199538","streetName":"Ciutat d'Asunci\u00f3n","streetNumber":"73","altitude":"23","slots":"27","bikes":"0","nearbyStations":"344","status":"CLS"},{"id":"345","type":"BIKE","latitude":"41.363093","longitude":"2.139771","streetName":"Pl. Teresa de Claramunt","streetNumber":"","altitude":"48","slots":"30","bikes":"1","nearbyStations":"345","status":"CLS"},{"id":"346","type":"BIKE","latitude":"41.360654","longitude":"2.139132","streetName":"Carrer de la Foneria","streetNumber":"33","altitude":"48","slots":"31","bikes":"0","nearbyStations":"346","status":"CLS"},{"id":"347","type":"BIKE","latitude":"41.359496","longitude":"2.14182","streetName":"Alts Forns","streetNumber":"77","altitude":"35","slots":"33","bikes":"0","nearbyStations":"347","status":"CLS"},{"id":"348","type":"BIKE","latitude":"41.357067","longitude":"2.141563","streetName":"Jardins de Can Ferrero","streetNumber":"","altitude":"13","slots":"32","bikes":"0","nearbyStations":"348","status":"CLS"},{"id":"349","type":"BIKE","latitude":"41.357338","longitude":"2.137172","streetName":"Carrer de l'Energia","streetNumber":"2","altitude":"13","slots":"32","bikes":"0","nearbyStations":"349","status":"CLS"},{"id":"350","type":"BIKE","latitude":"41.391833","longitude":"2.14812","streetName":"Villarroel","streetNumber":"208","altitude":"69","slots":"32","bikes":"0","nearbyStations":"350","status":"CLS"},{"id":"351","type":"BIKE","latitude":"41.362135","longitude":"2.135637","streetName":"Jane Addams","streetNumber":"26","altitude":"48","slots":"33","bikes":"0","nearbyStations":"351","status":"CLS"},{"id":"352","type":"BIKE","latitude":"41.36335","longitude":"2.134144","streetName":"Radi","streetNumber":"10","altitude":"48","slots":"32","bikes":"0","nearbyStations":"352","status":"CLS"},{"id":"353","type":"BIKE","latitude":"41.375414","longitude":"2.123191","streetName":"Munn\u00e9","streetNumber":"6","altitude":"47","slots":"26","bikes":"0","nearbyStations":"353","status":"CLS"},{"id":"354","type":"BIKE","latitude":"41.37592","longitude":"2.13008","streetName":"Rambla del Brasil","streetNumber":"5","altitude":"46","slots":"26","bikes":"0","nearbyStations":"354","status":"CLS"},{"id":"355","type":"BIKE","latitude":"41.37211","longitude":"2.12859","streetName":"Carreras i Candi","streetNumber":"89","altitude":"39","slots":"26","bikes":"0","nearbyStations":"355","status":"CLS"},{"id":"356","type":"BIKE","latitude":"41.413425","longitude":"2.163411","streetName":"Cam\u00e8lies","streetNumber":"73","altitude":"115","slots":"26","bikes":"0","nearbyStations":"356","status":"CLS"},{"id":"357","type":"BIKE","latitude":"41.410538","longitude":"2.1581","streetName":"Cardener","streetNumber":"82","altitude":"104","slots":"27","bikes":"0","nearbyStations":"357","status":"CLS"},{"id":"358","type":"BIKE","latitude":"41.387225","longitude":"2.17927","streetName":"Gombau","streetNumber":"24","altitude":"16","slots":"25","bikes":"0","nearbyStations":"358","status":"CLS"},{"id":"359","type":"BIKE","latitude":"41.390021","longitude":"2.177572","streetName":"M\u00e9ndez N\u00fa\u00f1ez","streetNumber":"16","altitude":"16","slots":"27","bikes":"0","nearbyStations":"359","status":"CLS"},{"id":"360","type":"BIKE","latitude":"41.395213","longitude":"2.172984","streetName":"Bail\u00e9n","streetNumber":"62","altitude":"42","slots":"30","bikes":"0","nearbyStations":"360","status":"CLS"},{"id":"361","type":"BIKE","latitude":"41.376292","longitude":"2.178553","streetName":"Passeig de Colom","streetNumber":"","altitude":"5","slots":"33","bikes":"0","nearbyStations":"361","status":"CLS"},{"id":"362","type":"BIKE","latitude":"41.397006","longitude":"2.17057","streetName":"Bail\u00e9n","streetNumber":"100","altitude":"42","slots":"33","bikes":"0","nearbyStations":"362","status":"CLS"},{"id":"363","type":"BIKE","latitude":"41.39076","longitude":"2.1744","streetName":"Bruc","streetNumber":"20","altitude":"32","slots":"27","bikes":"0","nearbyStations":"363","status":"CLS"},{"id":"364","type":"BIKE","latitude":"41.39324","longitude":"2.16343","streetName":"Passeig de Gr\u00e0cia","streetNumber":"61","altitude":"50","slots":"32","bikes":"0","nearbyStations":"364","status":"CLS"},{"id":"365","type":"BIKE","latitude":"41.387499","longitude":"2.14702","streetName":"Viladomat","streetNumber":"244","altitude":"51","slots":"32","bikes":"0","nearbyStations":"365","status":"CLS"},{"id":"366","type":"BIKE","latitude":"41.393037","longitude":"2.14358","streetName":"Pau Casals","streetNumber":"1","altitude":"69","slots":"27","bikes":"0","nearbyStations":"366","status":"CLS"},{"id":"367","type":"BIKE","latitude":"41.385057","longitude":"2.137331","streetName":"Sentmenat","streetNumber":"39","altitude":"57","slots":"29","bikes":"1","nearbyStations":"367","status":"CLS"},{"id":"368","type":"BIKE","latitude":"41.396815","longitude":"2.175714","streetName":"Diputaci\u00f3","streetNumber":"350","altitude":"21","slots":"27","bikes":"0","nearbyStations":"368","status":"CLS"},{"id":"369","type":"BIKE","latitude":"41.400168","longitude":"2.177948","streetName":"Consell de Cent","streetNumber":"482","altitude":"28","slots":"25","bikes":"0","nearbyStations":"369","status":"CLS"},{"id":"370","type":"BIKE","latitude":"41.403735","longitude":"2.172987","streetName":"Sardenya","streetNumber":"234","altitude":"49","slots":"27","bikes":"0","nearbyStations":"370","status":"CLS"},{"id":"371","type":"BIKE","latitude":"41.404027","longitude":"2.181264","streetName":"Carrer dels Enamorats","streetNumber":"49","altitude":"28","slots":"31","bikes":"0","nearbyStations":"371","status":"CLS"},{"id":"372","type":"BIKE","latitude":"41.400167","longitude":"2.184362","streetName":"Ribes","streetNumber":"77","altitude":"18","slots":"27","bikes":"0","nearbyStations":"372","status":"CLS"},{"id":"373","type":"BIKE","latitude":"41.375073","longitude":"2.161305","streetName":"Av. Paral.lel","streetNumber":"132","altitude":"35","slots":"34","bikes":"0","nearbyStations":"373","status":"CLS"},{"id":"374","type":"BIKE","latitude":"41.395","longitude":"2.16123","streetName":"Passeig de Gr\u00e0cia","streetNumber":"89","altitude":"50","slots":"33","bikes":"0","nearbyStations":"374","status":"CLS"},{"id":"375","type":"BIKE","latitude":"41.372154","longitude":"2.180701","streetName":"World Trade Center","streetNumber":"","altitude":"1","slots":"27","bikes":"0","nearbyStations":"375","status":"CLS"},{"id":"376","type":"BIKE","latitude":"41.371663","longitude":"2.180302","streetName":"World Trade Center","streetNumber":"","altitude":"1","slots":"26","bikes":"0","nearbyStations":"376","status":"CLS"},{"id":"377","type":"BIKE","latitude":"41.37747","longitude":"2.183737","streetName":"Pl. Ict\u00edneo","streetNumber":"","altitude":"1","slots":"30","bikes":"0","nearbyStations":"377","status":"CLS"},{"id":"378","type":"BIKE","latitude":"41.378516","longitude":"2.176716","streetName":"Pl.Joaquim Xira i Palau","streetNumber":"1","altitude":"5","slots":"21","bikes":"0","nearbyStations":"378","status":"CLS"},{"id":"379","type":"BIKE","latitude":"41.381709","longitude":"2.177308","streetName":"Pl. Sant Miquel","streetNumber":"4","altitude":"5","slots":"18","bikes":"0","nearbyStations":"379","status":"CLS"},{"id":"380","type":"BIKE","latitude":"41.385463","longitude":"2.174252","streetName":"Duran i Bas","streetNumber":"2","altitude":"32","slots":"23","bikes":"0","nearbyStations":"380","status":"CLS"},{"id":"381","type":"BIKE","latitude":"41.381686","longitude":"2.167816","streetName":"Agust\u00ed Duran i Sanpere","streetNumber":"10","altitude":"24","slots":"31","bikes":"0","nearbyStations":"381","status":"CLS"},{"id":"382","type":"BIKE","latitude":"41.403938","longitude":"2.204188","streetName":"Lope de Vega","streetNumber":"79","altitude":"10","slots":"27","bikes":"0","nearbyStations":"382","status":"CLS"},{"id":"384","type":"BIKE","latitude":"41.380708","longitude":"2.146793","streetName":"Vilamar\u00ed","streetNumber":"85","altitude":"44","slots":"26","bikes":"0","nearbyStations":"384","status":"CLS"},{"id":"385","type":"BIKE","latitude":"41.387978","longitude":"2.155266","streetName":"Casanova","streetNumber":"119","altitude":"45","slots":"30","bikes":"0","nearbyStations":"385","status":"CLS"},{"id":"386","type":"BIKE","latitude":"41.375086","longitude":"2.156848","streetName":"Av.Paral.lel","streetNumber":"164","altitude":"40","slots":"23","bikes":"0","nearbyStations":"386","status":"CLS"},{"id":"387","type":"BIKE","latitude":"41.395796","longitude":"2.178784","streetName":"N\u00e0pols","streetNumber":"125","altitude":"21","slots":"27","bikes":"0","nearbyStations":"387","status":"CLS"},{"id":"388","type":"BIKE","latitude":"41.380593","longitude":"2.167418","streetName":"Riera Alta","streetNumber":"6","altitude":"24","slots":"27","bikes":"0","nearbyStations":"388","status":"CLS"},{"id":"389","type":"BIKE","latitude":"41.38739","longitude":"2.1875","streetName":"Recinte Parc de la Ciutadella","streetNumber":"","altitude":"11","slots":"27","bikes":"0","nearbyStations":"389","status":"CLS"},{"id":"390","type":"BIKE","latitude":"41.386955","longitude":"2.18195","streetName":"Comer\u00e7","streetNumber":"36","altitude":"16","slots":"27","bikes":"0","nearbyStations":"390","status":"CLS"},{"id":"391","type":"BIKE","latitude":"41.422873","longitude":"2.191204","streetName":"Sagrera","streetNumber":"74","altitude":"18","slots":"26","bikes":"0","nearbyStations":"391","status":"CLS"},{"id":"392","type":"BIKE","latitude":"41.390595","longitude":"2.190681","streetName":"Ramon Turr\u00f3","streetNumber":"4","altitude":"11","slots":"21","bikes":"0","nearbyStations":"392","status":"CLS"},{"id":"393","type":"BIKE","latitude":"41.402177","longitude":"2.197653","streetName":"Llacuna","streetNumber":"86","altitude":"16","slots":"33","bikes":"0","nearbyStations":"393","status":"CLS"},{"id":"394","type":"BIKE","latitude":"41.387151","longitude":"2.162838","streetName":"Diputaci\u00f3","streetNumber":"226","altitude":"41","slots":"27","bikes":"0","nearbyStations":"394","status":"CLS"},{"id":"395","type":"BIKE","latitude":"41.386009","longitude":"2.170212","streetName":"Pl. Catalunya","streetNumber":"22","altitude":"32","slots":"32","bikes":"0","nearbyStations":"395","status":"CLS"},{"id":"396","type":"BIKE","latitude":"41.389028","longitude":"2.196844","streetName":"Joan Mir\u00f3","streetNumber":"2","altitude":"1","slots":"31","bikes":"0","nearbyStations":"396","status":"CLS"},{"id":"397","type":"BIKE","latitude":"41.388894","longitude":"2.199334","streetName":"Av. Del Litoral","streetNumber":"24","altitude":"1","slots":"27","bikes":"0","nearbyStations":"397","status":"CLS"},{"id":"398","type":"BIKE","latitude":"41.381011","longitude":"2.193502","streetName":"Passeig Mar\u00edtim de la Barceloneta","streetNumber":"","altitude":"0","slots":"27","bikes":"0","nearbyStations":"398","status":"CLS"},{"id":"400","type":"BIKE","latitude":"41.36958","longitude":"2.188017","streetName":"Moll Oriental","streetNumber":"","altitude":"5","slots":"27","bikes":"0","nearbyStations":"400","status":"CLS"},{"id":"401","type":"BIKE","latitude":"41.381241","longitude":"2.181838","streetName":"Pl. Antonio L\u00f3pez (Via Laietana) annexa a la 37","streetNumber":"","altitude":"5","slots":"23","bikes":"0","nearbyStations":"401","status":"CLS"},{"id":"402","type":"BIKE","latitude":"41.380705","longitude":"2.182415","streetName":"Passeig de Colom","streetNumber":"","altitude":"5","slots":"25","bikes":"0","nearbyStations":"402","status":"CLS"},{"id":"404","type":"BIKE","latitude":"41.365374","longitude":"2.133087","streetName":"Juan Gris","streetNumber":"28","altitude":"16","slots":"26","bikes":"0","nearbyStations":"404","status":"CLS"},{"id":"405","type":"BIKE","latitude":"41.38551","longitude":"2.152","streetName":"Comte Borrell","streetNumber":"198","altitude":"45","slots":"26","bikes":"0","nearbyStations":"405","status":"CLS"},{"id":"406","type":"BIKE","latitude":"41.386512","longitude":"2.164597","streetName":"Gran Via de Les Corts Catalanes","streetNumber":"592","altitude":"41","slots":"33","bikes":"0","nearbyStations":"406","status":"CLS"},{"id":"408","type":"BIKE","latitude":"41.388988","longitude":"2.192283","streetName":"Ramon Trias Fargas","streetNumber":"23","altitude":"1","slots":"36","bikes":"0","nearbyStations":"408","status":"CLS"},{"id":"409","type":"BIKE","latitude":"41.392272","longitude":"2.192556","streetName":"Joan d'\u00c0ustria","streetNumber":"31 B","altitude":"11","slots":"18","bikes":"0","nearbyStations":"409","status":"CLS"},{"id":"410","type":"BIKE","latitude":"41.376433","longitude":"2.17871","streetName":"Passeig de Colom, s\/n","streetNumber":"","altitude":"5","slots":"33","bikes":"0","nearbyStations":"410","status":"CLS"},{"id":"411","type":"BIKE","latitude":"41.389499","longitude":"2.165387","streetName":"Rambla Catalunya (Diputaci\u00f3)","streetNumber":"31","altitude":"41","slots":"0","bikes":"0","nearbyStations":"411","status":"CLS"},{"id":"412","type":"BIKE","latitude":"41.389012","longitude":"2.172667","streetName":"Pl. Urquinaona","streetNumber":"3","altitude":"32","slots":"26","bikes":"0","nearbyStations":"412","status":"CLS"},{"id":"413","type":"BIKE","latitude":"41.393512","longitude":"2.170718","streetName":"Bruc","streetNumber":"66","altitude":"42","slots":"25","bikes":"2","nearbyStations":"413","status":"CLS"},{"id":"414","type":"BIKE","latitude":"41.393744","longitude":"2.176451","streetName":"Casp","streetNumber":"67","altitude":"21","slots":"33","bikes":"0","nearbyStations":"414","status":"CLS"},{"id":"415","type":"BIKE","latitude":"41.379374","longitude":"2.168921","streetName":"Rambla del Raval","streetNumber":"13","altitude":"24","slots":"27","bikes":"0","nearbyStations":"415","status":"CLS"},{"id":"416","type":"BIKE","latitude":"41.378134","longitude":"2.16965","streetName":"Rambla del Raval","streetNumber":"20","altitude":"24","slots":"25","bikes":"0","nearbyStations":"416","status":"CLS"},{"id":"418","type":"BIKE","latitude":"41.390943","longitude":"2.180251","streetName":"Passeig de Llu\u00eds Companys ","streetNumber":"","altitude":"16","slots":"25","bikes":"1","nearbyStations":"418","status":"CLS"},{"id":"419","type":"BIKE","latitude":"41.391299","longitude":"2.180828","streetName":"Passeig de Llu\u00eds Companys","streetNumber":"","altitude":"16","slots":"31","bikes":"0","nearbyStations":"419","status":"CLS"},{"id":"420","type":"BIKE","latitude":"41.374213","longitude":"2.148082","streetName":"Gran Via","streetNumber":"361","altitude":"61","slots":"18","bikes":"6","nearbyStations":"420","status":"CLS"},{"id":"421","type":"BIKE","latitude":"41.378031","longitude":"2.139124","streetName":"Pla\u00e7a de Joan Peir\u00f3","streetNumber":"","altitude":"45","slots":"31","bikes":"0","nearbyStations":"421","status":"CLS"},{"id":"423","type":"BIKE","latitude":"41.420201","longitude":"2.189532","streetName":"Carrer d'Hondures","streetNumber":"32","altitude":"18","slots":"3","bikes":"23","nearbyStations":"423","status":"CLS"},{"id":"424","type":"BIKE","latitude":"41.379632","longitude":"2.192662","streetName":"Passeig Mar\u00edtim de la Barceloneta, devant del 5-7","streetNumber":"5","altitude":"0","slots":"27","bikes":"0","nearbyStations":"424","status":"CLS"},{"id":"425","type":"BIKE","latitude":"41.37652","longitude":"2.1749","streetName":"Carrer de Cervell\u00f3","streetNumber":"5","altitude":"24","slots":"27","bikes":"0","nearbyStations":"425","status":"CLS"},{"id":"426","type":"BIKE","latitude":"41.398305","longitude":"2.183023","streetName":"Carrer de Ribes","streetNumber":"59","altitude":"21","slots":"31","bikes":"0","nearbyStations":"426","status":"CLS"},{"id":"427","type":"BIKE","latitude":"41.375336","longitude":"2.168007","streetName":"Carrer de Sant Pau","streetNumber":"119","altitude":"24","slots":"21","bikes":"0","nearbyStations":"427","status":"CLS"},{"id":"428","type":"BIKE","latitude":"41.398389","longitude":"2.196261","streetName":"Carrer Pujades","streetNumber":"103","altitude":"11","slots":"27","bikes":"0","nearbyStations":"428","status":"CLS"}]